{"type":"FeatureCollection","features":[{"type":"Feature","geometry":{"type":"Point","coordinates":{"type":"Point","coordinates":[138.666819,-4.651359]}},"properties":{"name":"Papua"}},{"type":"Feature","geometry":{"type":"Point","coordinates":{"type":"Point","coordinates":[132.932346,-2.012102]}},"properties":{"name":"Papua Barat"}},{"type":"Feature","geometry":{"type":"Point","coordinates":{"type":"Point","coordinates":[122.379312,0.684625]}},"properties":{"name":"Gorontalo"}},{"type":"Feature","geometry":{"type":"Point","coordinates":{"type":"Point","coordinates":[119.340456,-2.463875]}},"properties":{"name":"Sulawesi Barat"}},{"type":"Feature","geometry":{"type":"Point","coordinates":{"type":"Point","coordinates":[120.169125,-3.710932]}},"properties":{"name":"Sulawesi Selatan"}},{"type":"Feature","geometry":{"type":"Point","coordinates":{"type":"Point","coordinates":[121.19737,-0.985138]}},"properties":{"name":"Sulawesi Tengah"}},{"type":"Feature","geometry":{"type":"Point","coordinates":{"type":"Point","coordinates":[122.086213,-4.139499]}},"properties":{"name":"Sulawesi Tenggara"}},{"type":"Feature","geometry":{"type":"Point","coordinates":{"type":"Point","coordinates":[124.540305,1.288231]}},"properties":{"name":"Sulawesi Utara"}},{"type":"Feature","geometry":{"type":"Point","coordinates":{"type":"Point","coordinates":[129.832632,-4.739926]}},"properties":{"name":"Maluku"}},{"type":"Feature","geometry":{"type":"Point","coordinates":{"type":"Point","coordinates":[127.54282,0.217901]}},"properties":{"name":"Maluku Utara"}},{"type":"Feature","geometry":{"type":"Point","coordinates":{"type":"Point","coordinates":[112.692086,-7.739576]}},"properties":{"name":"Jawa Timur"}},{"type":"Feature","geometry":{"type":"Point","coordinates":{"type":"Point","coordinates":[96.909467,4.225633]}},"properties":{"name":"Nangroe Aceh Darusalam"}},{"type":"Feature","geometry":{"type":"Point","coordinates":{"type":"Point","coordinates":[99.057982,2.185007]}},"properties":{"name":"Sumatera Utara"}},{"type":"Feature","geometry":{"type":"Point","coordinates":{"type":"Point","coordinates":[100.466466,-0.850548]}},"properties":{"name":"Sumatera Barat"}},{"type":"Feature","geometry":{"type":"Point","coordinates":{"type":"Point","coordinates":[101.804723,0.510686]}},"properties":{"name":"Riau"}},{"type":"Feature","geometry":{"type":"Point","coordinates":{"type":"Point","coordinates":[105.437793,1.486866]}},"properties":{"name":"Kepulauan Riau"}},{"type":"Feature","geometry":{"type":"Point","coordinates":{"type":"Point","coordinates":[106.834862,-6.200995]}},"properties":{"name":"DKI Jakarta"}},{"type":"Feature","geometry":{"type":"Point","coordinates":{"type":"Point","coordinates":[106.108916,-6.457081]}},"properties":{"name":"Banten"}},{"type":"Feature","geometry":{"type":"Point","coordinates":{"type":"Point","coordinates":[106.553508,-2.449182]}},"properties":{"name":"Bangka Belitung"}},{"type":"Feature","geometry":{"type":"Point","coordinates":{"type":"Point","coordinates":[102.337257,-3.553389]}},"properties":{"name":"Bengkulu"}},{"type":"Feature","geometry":{"type":"Point","coordinates":{"type":"Point","coordinates":[102.726885,-1.698823]}},"properties":{"name":"Jambi"}},{"type":"Feature","geometry":{"type":"Point","coordinates":{"type":"Point","coordinates":[105.018314,-4.918795]}},"properties":{"name":"Lampung"}},{"type":"Feature","geometry":{"type":"Point","coordinates":{"type":"Point","coordinates":[104.16934,-3.215926]}},"properties":{"name":"Sumatera Selatan"}},{"type":"Feature","geometry":{"type":"Point","coordinates":{"type":"Point","coordinates":[115.133388,-8.369455]}},"properties":{"name":"Bali"}},{"type":"Feature","geometry":{"type":"Point","coordinates":{"type":"Point","coordinates":[117.507018,-8.59033]}},"properties":{"name":"Nusa Tenggara Barat"}},{"type":"Feature","geometry":{"type":"Point","coordinates":{"type":"Point","coordinates":[122.152463,-9.260771]}},"properties":{"name":"Nusa Tenggara Timur"}},{"type":"Feature","geometry":{"type":"Point","coordinates":{"type":"Point","coordinates":[110.198624,-7.259694]}},"properties":{"name":"Jawa Tengah"}},{"type":"Feature","geometry":{"type":"Point","coordinates":{"type":"Point","coordinates":[110.445435,-7.894361]}},"properties":{"name":"DI Yogyakarta"}},{"type":"Feature","geometry":{"type":"Point","coordinates":{"type":"Point","coordinates":[111.12041,-0.086866]}},"properties":{"name":"Kalimantan Barat"}},{"type":"Feature","geometry":{"type":"Point","coordinates":{"type":"Point","coordinates":[115.43611,-3.001794]}},"properties":{"name":"Kalimantan Selatan"}},{"type":"Feature","geometry":{"type":"Point","coordinates":{"type":"Point","coordinates":[113.415991,-1.602058]}},"properties":{"name":"Kalimantan Tengah"}},{"type":"Feature","geometry":{"type":"Point","coordinates":{"type":"Point","coordinates":[116.380802,1.329694]}},"properties":{"name":"Kalimantan Timur"}},{"type":"Feature","geometry":{"type":"Point","coordinates":{"type":"Point","coordinates":[107.600566,-6.919923]}},"properties":{"name":"Jawa Barat"}}]}