{"type":"FeatureCollection","features":[{"type":"Feature","geometry":{"type":"Point","coordinates":[138.666819,-4.651359]},"properties":{"id":94,"name":"Papua"}},{"type":"Feature","geometry":{"type":"Point","coordinates":[132.932346,-2.012102]},"properties":{"id":91,"name":"Papua Barat"}},{"type":"Feature","geometry":{"type":"Point","coordinates":[122.379312,0.684625]},"properties":{"id":75,"name":"Gorontalo"}},{"type":"Feature","geometry":{"type":"Point","coordinates":[119.340456,-2.463875]},"properties":{"id":76,"name":"Sulawesi Barat"}},{"type":"Feature","geometry":{"type":"Point","coordinates":[120.169125,-3.710932]},"properties":{"id":73,"name":"Sulawesi Selatan"}},{"type":"Feature","geometry":{"type":"Point","coordinates":[121.19737,-0.985138]},"properties":{"id":72,"name":"Sulawesi Tengah"}},{"type":"Feature","geometry":{"type":"Point","coordinates":[122.086213,-4.139499]},"properties":{"id":74,"name":"Sulawesi Tenggara"}},{"type":"Feature","geometry":{"type":"Point","coordinates":[124.540305,1.288231]},"properties":{"id":71,"name":"Sulawesi Utara"}},{"type":"Feature","geometry":{"type":"Point","coordinates":[129.832632,-4.739926]},"properties":{"id":81,"name":"Maluku"}},{"type":"Feature","geometry":{"type":"Point","coordinates":[127.54282,0.217901]},"properties":{"id":82,"name":"Maluku Utara"}},{"type":"Feature","geometry":{"type":"Point","coordinates":[112.692086,-7.739576]},"properties":{"id":35,"name":"Jawa Timur"}},{"type":"Feature","geometry":{"type":"Point","coordinates":[96.909467,4.225633]},"properties":{"id":11,"name":"Nangroe Aceh Darusalam"}},{"type":"Feature","geometry":{"type":"Point","coordinates":[99.057982,2.185007]},"properties":{"id":12,"name":"Sumatera Utara"}},{"type":"Feature","geometry":{"type":"Point","coordinates":[100.466466,-0.850548]},"properties":{"id":13,"name":"Sumatera Barat"}},{"type":"Feature","geometry":{"type":"Point","coordinates":[101.804723,0.510686]},"properties":{"id":14,"name":"Riau"}},{"type":"Feature","geometry":{"type":"Point","coordinates":[105.437793,1.486866]},"properties":{"id":21,"name":"Kepulauan Riau"}},{"type":"Feature","geometry":{"type":"Point","coordinates":[106.834862,-6.200995]},"properties":{"id":31,"name":"DKI Jakarta"}},{"type":"Feature","geometry":{"type":"Point","coordinates":[106.108916,-6.457081]},"properties":{"id":36,"name":"Banten"}},{"type":"Feature","geometry":{"type":"Point","coordinates":[106.553508,-2.449182]},"properties":{"id":19,"name":"Bangka Belitung"}},{"type":"Feature","geometry":{"type":"Point","coordinates":[102.337257,-3.553389]},"properties":{"id":17,"name":"Bengkulu"}},{"type":"Feature","geometry":{"type":"Point","coordinates":[102.726885,-1.698823]},"properties":{"id":15,"name":"Jambi"}},{"type":"Feature","geometry":{"type":"Point","coordinates":[105.018314,-4.918795]},"properties":{"id":18,"name":"Lampung"}},{"type":"Feature","geometry":{"type":"Point","coordinates":[104.16934,-3.215926]},"properties":{"id":16,"name":"Sumatera Selatan"}},{"type":"Feature","geometry":{"type":"Point","coordinates":[115.133388,-8.369455]},"properties":{"id":51,"name":"Bali"}},{"type":"Feature","geometry":{"type":"Point","coordinates":[117.507018,-8.59033]},"properties":{"id":52,"name":"Nusa Tenggara Barat"}},{"type":"Feature","geometry":{"type":"Point","coordinates":[122.152463,-9.260771]},"properties":{"id":53,"name":"Nusa Tenggara Timur"}},{"type":"Feature","geometry":{"type":"Point","coordinates":[110.198624,-7.259694]},"properties":{"id":33,"name":"Jawa Tengah"}},{"type":"Feature","geometry":{"type":"Point","coordinates":[110.445435,-7.894361]},"properties":{"id":34,"name":"DI Yogyakarta"}},{"type":"Feature","geometry":{"type":"Point","coordinates":[111.12041,-0.086866]},"properties":{"id":61,"name":"Kalimantan Barat"}},{"type":"Feature","geometry":{"type":"Point","coordinates":[115.43611,-3.001794]},"properties":{"id":63,"name":"Kalimantan Selatan"}},{"type":"Feature","geometry":{"type":"Point","coordinates":[113.415991,-1.602058]},"properties":{"id":62,"name":"Kalimantan Tengah"}},{"type":"Feature","geometry":{"type":"Point","coordinates":[116.380802,1.329694]},"properties":{"id":64,"name":"Kalimantan Timur"}},{"type":"Feature","geometry":{"type":"Point","coordinates":[107.600566,-6.919923]},"properties":{"id":32,"name":"Jawa Barat"}}]}